%time,field.header.seq,field.header.stamp,field.header.frame_id,field.wrench.force.x,field.wrench.force.y,field.wrench.force.z,field.wrench.torque.x,field.wrench.torque.y,field.wrench.torque.z
1519700447405916487,6962,1519700447392580032,optoforce_0,-0.0140706345856,0.0724637681159,1.80032733224,0.0,0.0,0.0
1519700447439485167,6963,1519700447422506093,optoforce_0,-0.0422119037569,0.0869565217391,1.96399345336,0.0,0.0,0.0
1519700447474422004,6964,1519700447452414989,optoforce_0,-0.0281412691712,0.0724637681159,1.96399345336,0.0,0.0,0.0
1519700447507481903,6965,1519700447492706060,optoforce_0,-0.0140706345856,0.0579710144928,1.96399345336,0.0,0.0,0.0
1519700447540370549,6966,1519700447522747039,optoforce_0,-0.0140706345856,0.0724637681159,1.96399345336,0.0,0.0,0.0
1519700447574557525,6967,1519700447552416086,optoforce_0,-0.0422119037569,0.0724637681159,1.96399345336,0.0,0.0,0.0
1519700447606442796,6968,1519700447592766046,optoforce_0,-0.0281412691712,0.0434782608696,1.96399345336,0.0,0.0,0.0
1519700447640276321,6969,1519700447622467041,optoforce_0,-0.0140706345856,0.0579710144928,1.96399345336,0.0,0.0,0.0
1519700447672269760,6970,1519700447652482032,optoforce_0,-0.0281412691712,0.0869565217391,1.96399345336,0.0,0.0,0.0
1519700447705059534,6971,1519700447692657947,optoforce_0,-0.0422119037569,0.0724637681159,1.96399345336,0.0,0.0,0.0
1519700447738357371,6972,1519700447722614049,optoforce_0,-0.0140706345856,0.0434782608696,1.96399345336,0.0,0.0,0.0
1519700447774507657,6973,1519700447752455949,optoforce_0,-0.0140706345856,0.0579710144928,1.96399345336,0.0,0.0,0.0
1519700447806527015,6974,1519700447792596101,optoforce_0,-0.0422119037569,0.0724637681159,1.96399345336,0.0,0.0,0.0
1519700447839540207,6975,1519700447822670936,optoforce_0,-0.0281412691712,0.0724637681159,1.96399345336,0.0,0.0,0.0
1519700447873979000,6976,1519700447852577924,optoforce_0,-0.0140706345856,0.0434782608696,1.96399345336,0.0,0.0,0.0
1519700447906656153,6977,1519700447892556905,optoforce_0,-0.0281412691712,0.0869565217391,1.96399345336,0.0,0.0,0.0
1519700447940531538,6978,1519700447922601938,optoforce_0,-0.0281412691712,0.0579710144928,1.96399345336,0.0,0.0,0.0
1519700447976278175,6979,1519700447952574014,optoforce_0,-0.0281412691712,0.0434782608696,1.96399345336,0.0,0.0,0.0
1519700448008817429,6980,1519700447992767095,optoforce_0,0.0,0.0579710144928,1.96399345336,0.0,0.0,0.0
1519700448039411393,6981,1519700448022564888,optoforce_0,-0.0281412691712,0.0724637681159,1.96399345336,0.0,0.0,0.0
1519700448072217874,6982,1519700448052567005,optoforce_0,-0.0422119037569,0.0579710144928,1.96399345336,0.0,0.0,0.0
1519700448106779796,6983,1519700448092775106,optoforce_0,-0.0422119037569,0.0579710144928,1.96399345336,0.0,0.0,0.0
1519700448138013885,6984,1519700448122592926,optoforce_0,-0.0140706345856,0.0434782608696,1.96399345336,0.0,0.0,0.0
1519700448174277801,6985,1519700448152565002,optoforce_0,-0.0281412691712,0.0579710144928,1.96399345336,0.0,0.0,0.0
1519700448206739339,6986,1519700448192651987,optoforce_0,-0.0422119037569,0.0724637681159,1.96399345336,0.0,0.0,0.0
1519700448240059310,6987,1519700448222668886,optoforce_0,-0.0281412691712,0.0724637681159,1.96399345336,0.0,0.0,0.0
1519700448274205932,6988,1519700448252597093,optoforce_0,-0.0140706345856,0.0579710144928,1.96399345336,0.0,0.0,0.0
1519700448307345758,6989,1519700448293425083,optoforce_0,-0.0281412691712,0.0724637681159,1.96399345336,0.0,0.0,0.0
1519700448339679694,6990,1519700448322674036,optoforce_0,-0.0422119037569,0.0724637681159,1.96399345336,0.0,0.0,0.0
1519700448373513223,6991,1519700448352636098,optoforce_0,-0.0281412691712,0.0579710144928,1.96399345336,0.0,0.0,0.0
1519700448406782063,6992,1519700448392942905,optoforce_0,0.0,0.0579710144928,1.96399345336,0.0,0.0,0.0
1519700448438798177,6993,1519700448422811031,optoforce_0,-0.0281412691712,0.0724637681159,1.96399345336,0.0,0.0,0.0
1519700448472591260,6994,1519700448452681064,optoforce_0,-0.0422119037569,0.0724637681159,1.96399345336,0.0,0.0,0.0
1519700448505370838,6995,1519700448492814064,optoforce_0,-0.0281412691712,0.0579710144928,1.96399345336,0.0,0.0,0.0
1519700448538279870,6996,1519700448522774934,optoforce_0,0.0,0.0434782608696,1.96399345336,0.0,0.0,0.0
1519700448575065017,6997,1519700448552752971,optoforce_0,-0.0140706345856,0.0724637681159,1.96399345336,0.0,0.0,0.0
1519700448607477879,6998,1519700448592849969,optoforce_0,-0.0281412691712,0.0724637681159,1.96399345336,0.0,0.0,0.0
1519700448640053671,6999,1519700448622786045,optoforce_0,-0.0140706345856,0.0724637681159,1.96399345336,0.0,0.0,0.0
1519700448674239751,7000,1519700448652724027,optoforce_0,-0.0140706345856,0.0434782608696,1.96399345336,0.0,0.0,0.0
1519700448706845732,7001,1519700448693003892,optoforce_0,-0.0140706345856,0.0724637681159,1.96399345336,0.0,0.0,0.0
1519700448739726218,7002,1519700448722799062,optoforce_0,-0.0281412691712,0.0579710144928,1.96399345336,0.0,0.0,0.0
1519700448773936439,7003,1519700448753907918,optoforce_0,-0.0281412691712,0.0579710144928,1.96399345336,0.0,0.0,0.0
1519700448808070896,7004,1519700448792815923,optoforce_0,0.0,0.0724637681159,1.96399345336,0.0,0.0,0.0
1519700448839922240,7005,1519700448822691917,optoforce_0,-0.0422119037569,0.0869565217391,1.96399345336,0.0,0.0,0.0
1519700448872159702,7006,1519700448852750062,optoforce_0,-0.0281412691712,0.0869565217391,1.96399345336,0.0,0.0,0.0
1519700448906931965,7007,1519700448892822027,optoforce_0,-0.0140706345856,0.0579710144928,1.96399345336,0.0,0.0,0.0
1519700448939387217,7008,1519700448922786951,optoforce_0,-0.0281412691712,0.0724637681159,1.96399345336,0.0,0.0,0.0
1519700448974307326,7009,1519700448952749967,optoforce_0,-0.0281412691712,0.0724637681159,1.96399345336,0.0,0.0,0.0
1519700449007141500,7010,1519700448992871046,optoforce_0,-0.0281412691712,0.0579710144928,1.96399345336,0.0,0.0,0.0
1519700449041033192,7011,1519700449022839069,optoforce_0,-0.0140706345856,0.0434782608696,1.96399345336,0.0,0.0,0.0
1519700449074002090,7012,1519700449052782058,optoforce_0,-0.0281412691712,0.0724637681159,1.96399345336,0.0,0.0,0.0
1519700449107845293,7013,1519700449092842102,optoforce_0,-0.0422119037569,0.0724637681159,1.96399345336,0.0,0.0,0.0
1519700449139984660,7014,1519700449122987031,optoforce_0,-0.0281412691712,0.0579710144928,1.96399345336,0.0,0.0,0.0
1519700449174236681,7015,1519700449152956008,optoforce_0,0.0,0.0579710144928,1.96399345336,0.0,0.0,0.0
1519700449205300956,7016,1519700449192982912,optoforce_0,-0.0422119037569,0.0724637681159,1.96399345336,0.0,0.0,0.0
1519700449238007086,7017,1519700449222899913,optoforce_0,-0.0281412691712,0.0724637681159,1.96399345336,0.0,0.0,0.0
1519700449271935275,7018,1519700449252830982,optoforce_0,-0.0281412691712,0.0579710144928,1.96399345336,0.0,0.0,0.0
1519700449307166208,7019,1519700449293545961,optoforce_0,-0.0140706345856,0.0579710144928,1.96399345336,0.0,0.0,0.0
1519700449339438644,7020,1519700449322916030,optoforce_0,-0.0281412691712,0.0869565217391,1.96399345336,0.0,0.0,0.0
1519700449374001433,7021,1519700449352858066,optoforce_0,-0.0422119037569,0.0724637681159,1.96399345336,0.0,0.0,0.0
1519700449406959302,7022,1519700449392936944,optoforce_0,-0.0140706345856,0.0579710144928,1.96399345336,0.0,0.0,0.0
1519700449440388393,7023,1519700449422874927,optoforce_0,-0.0140706345856,0.0579710144928,1.96399345336,0.0,0.0,0.0
1519700449474314626,7024,1519700449452802896,optoforce_0,-0.0281412691712,0.0724637681159,1.96399345336,0.0,0.0,0.0
1519700449506693637,7025,1519700449493035078,optoforce_0,-0.0281412691712,0.0434782608696,1.96399345336,0.0,0.0,0.0
1519700449539826338,7026,1519700449523017883,optoforce_0,-0.0140706345856,0.0434782608696,1.96399345336,0.0,0.0,0.0
1519700449572956139,7027,1519700449552958965,optoforce_0,-0.0140706345856,0.0724637681159,1.96399345336,0.0,0.0,0.0
1519700449606245913,7028,1519700449592890024,optoforce_0,-0.0422119037569,0.0724637681159,1.96399345336,0.0,0.0,0.0
1519700449638308207,7029,1519700449622916936,optoforce_0,-0.0281412691712,0.0579710144928,1.96399345336,0.0,0.0,0.0
1519700449671954942,7030,1519700449652965068,optoforce_0,-0.0140706345856,0.0579710144928,1.96399345336,0.0,0.0,0.0
1519700449707249725,7031,1519700449693022966,optoforce_0,-0.0140706345856,0.0724637681159,1.96399345336,0.0,0.0,0.0
1519700449740203917,7032,1519700449723020076,optoforce_0,-0.0281412691712,0.0724637681159,1.96399345336,0.0,0.0,0.0
1519700449774878421,7033,1519700449752962112,optoforce_0,-0.0140706345856,0.0434782608696,1.96399345336,0.0,0.0,0.0
1519700449806813366,7034,1519700449794148921,optoforce_0,-0.0140706345856,0.0724637681159,1.96399345336,0.0,0.0,0.0
1519700449839334756,7035,1519700449822977066,optoforce_0,-0.0422119037569,0.0724637681159,1.96399345336,0.0,0.0,0.0
1519700449874772865,7036,1519700449852935075,optoforce_0,-0.0281412691712,0.0579710144928,1.96399345336,0.0,0.0,0.0
1519700449906769304,7037,1519700449893034934,optoforce_0,-0.0140706345856,0.0579710144928,1.96399345336,0.0,0.0,0.0
1519700449938659697,7038,1519700449923115015,optoforce_0,-0.0140706345856,0.0724637681159,1.96399345336,0.0,0.0,0.0
1519700449972225905,7039,1519700449953073024,optoforce_0,-0.0422119037569,0.0869565217391,1.96399345336,0.0,0.0,0.0
1519700450005742053,7040,1519700449993129014,optoforce_0,-0.0281412691712,0.0434782608696,1.96399345336,0.0,0.0,0.0
1519700450038572877,7041,1519700450023017883,optoforce_0,0.0,0.0579710144928,1.96399345336,0.0,0.0,0.0
1519700450074347815,7042,1519700450053006887,optoforce_0,-0.0281412691712,0.0724637681159,1.96399345336,0.0,0.0,0.0
1519700450107181526,7043,1519700450093177080,optoforce_0,-0.0422119037569,0.0579710144928,1.96399345336,0.0,0.0,0.0
1519700450139761161,7044,1519700450123089075,optoforce_0,-0.0281412691712,0.0434782608696,1.96399345336,0.0,0.0,0.0
1519700450174554827,7045,1519700450153120040,optoforce_0,-0.0140706345856,0.0579710144928,1.96399345336,0.0,0.0,0.0
1519700450206807794,7046,1519700450193231105,optoforce_0,-0.0422119037569,0.0724637681159,1.96399345336,0.0,0.0,0.0
1519700450240672532,7047,1519700450223058938,optoforce_0,-0.0422119037569,0.0724637681159,1.96399345336,0.0,0.0,0.0
1519700450274904729,7048,1519700450253005981,optoforce_0,-0.0281412691712,0.0724637681159,1.96399345336,0.0,0.0,0.0
1519700450306276239,7049,1519700450293097019,optoforce_0,0.0,0.0579710144928,1.96399345336,0.0,0.0,0.0
1519700450338419404,7050,1519700450323046922,optoforce_0,-0.0281412691712,0.0724637681159,1.96399345336,0.0,0.0,0.0
1519700450372258612,7051,1519700450353152036,optoforce_0,-0.0422119037569,0.0724637681159,1.96399345336,0.0,0.0,0.0
1519700450405017111,7052,1519700450393135070,optoforce_0,-0.0281412691712,0.0579710144928,1.96399345336,0.0,0.0,0.0
1519700450440349636,7053,1519700450423165082,optoforce_0,-0.0140706345856,0.0579710144928,1.96399345336,0.0,0.0,0.0
1519700450474419337,7054,1519700450453177928,optoforce_0,-0.0140706345856,0.0724637681159,1.96399345336,0.0,0.0,0.0
1519700450507379258,7055,1519700450493113994,optoforce_0,-0.0422119037569,0.0724637681159,1.96399345336,0.0,0.0,0.0
1519700450540442031,7056,1519700450523111104,optoforce_0,-0.0281412691712,0.0579710144928,1.96399345336,0.0,0.0,0.0
1519700450574223666,7057,1519700450553177118,optoforce_0,0.0,0.0434782608696,1.96399345336,0.0,0.0,0.0
1519700450606890085,7058,1519700450582967996,optoforce_0,0.0,0.0724637681159,1.96399345336,0.0,0.0,0.0
1519700450642133159,7059,1519700450623191118,optoforce_0,-0.0281412691712,0.0869565217391,1.96399345336,0.0,0.0,0.0
1519700450675173965,7060,1519700450653104066,optoforce_0,-0.0281412691712,0.0724637681159,1.96399345336,0.0,0.0,0.0
1519700450705941312,7061,1519700450693157911,optoforce_0,-0.0140706345856,0.0579710144928,2.12765957447,0.0,0.0,0.0
1519700450738739110,7062,1519700450723140001,optoforce_0,-0.0140706345856,0.0579710144928,1.96399345336,0.0,0.0,0.0
1519700450772594618,7063,1519700450753329038,optoforce_0,-0.0281412691712,0.0869565217391,1.96399345336,0.0,0.0,0.0
1519700450806940151,7064,1519700450793490886,optoforce_0,-0.0281412691712,0.0724637681159,1.96399345336,0.0,0.0,0.0
1519700450839232295,7065,1519700450823213100,optoforce_0,-0.0281412691712,0.0579710144928,1.96399345336,0.0,0.0,0.0
1519700450874566635,7066,1519700450853291988,optoforce_0,0.0,0.0579710144928,1.96399345336,0.0,0.0,0.0
1519700450907645186,7067,1519700450893326997,optoforce_0,-0.0281412691712,0.0869565217391,1.96399345336,0.0,0.0,0.0
1519700450940650352,7068,1519700450923286914,optoforce_0,-0.0422119037569,0.0724637681159,1.96399345336,0.0,0.0,0.0
1519700450974161603,7069,1519700450953332901,optoforce_0,-0.0281412691712,0.0579710144928,1.96399345336,0.0,0.0,0.0
1519700451007020834,7070,1519700450983046054,optoforce_0,-0.0140706345856,0.0434782608696,1.96399345336,0.0,0.0,0.0
1519700451038831125,7071,1519700451023389101,optoforce_0,-0.0140706345856,0.0724637681159,1.96399345336,0.0,0.0,0.0
1519700451072373128,7072,1519700451053364038,optoforce_0,-0.0281412691712,0.0724637681159,1.96399345336,0.0,0.0,0.0
1519700451105480327,7073,1519700451093312978,optoforce_0,-0.0140706345856,0.0579710144928,1.96399345336,0.0,0.0,0.0
1519700451139024538,7074,1519700451123310089,optoforce_0,-0.0140706345856,0.0434782608696,1.96399345336,0.0,0.0,0.0
1519700451174227252,7075,1519700451153400897,optoforce_0,0.0,0.0724637681159,1.96399345336,0.0,0.0,0.0
1519700451206686865,7076,1519700451193356990,optoforce_0,-0.0422119037569,0.0869565217391,1.96399345336,0.0,0.0,0.0
1519700451240373013,7077,1519700451223284006,optoforce_0,-0.0422119037569,0.0724637681159,1.96399345336,0.0,0.0,0.0
1519700451276360472,7078,1519700451253473043,optoforce_0,-0.0281412691712,0.0434782608696,1.96399345336,0.0,0.0,0.0
1519700451308782900,7079,1519700451293726921,optoforce_0,-0.0140706345856,0.0579710144928,1.96399345336,0.0,0.0,0.0
1519700451341954940,7080,1519700451323328971,optoforce_0,-0.0281412691712,0.0869565217391,1.96399345336,0.0,0.0,0.0
1519700451374417038,7081,1519700451353487968,optoforce_0,-0.0281412691712,0.0724637681159,1.96399345336,0.0,0.0,0.0
1519700451406826415,7082,1519700451393379926,optoforce_0,-0.0140706345856,0.0579710144928,1.96399345336,0.0,0.0,0.0
1519700451439497438,7083,1519700451423279047,optoforce_0,-0.0140706345856,0.0434782608696,1.96399345336,0.0,0.0,0.0
1519700451472804109,7084,1519700451453505039,optoforce_0,-0.0140706345856,0.0724637681159,1.96399345336,0.0,0.0,0.0
1519700451505572787,7085,1519700451493457078,optoforce_0,-0.0422119037569,0.0724637681159,1.96399345336,0.0,0.0,0.0
1519700451540284713,7086,1519700451523236036,optoforce_0,-0.0281412691712,0.0724637681159,2.12765957447,0.0,0.0,0.0
1519700451573091382,7087,1519700451553486108,optoforce_0,-0.0281412691712,0.0579710144928,1.96399345336,0.0,0.0,0.0
1519700451606831454,7088,1519700451593359947,optoforce_0,-0.0140706345856,0.0579710144928,1.96399345336,0.0,0.0,0.0
1519700451639925519,7089,1519700451623367071,optoforce_0,-0.0281412691712,0.0869565217391,1.96399345336,0.0,0.0,0.0
1519700451674705829,7090,1519700451653481006,optoforce_0,-0.0281412691712,0.0724637681159,1.96399345336,0.0,0.0,0.0
1519700451706629869,7091,1519700451683186054,optoforce_0,-0.0281412691712,0.0579710144928,1.96399345336,0.0,0.0,0.0
1519700451740914572,7092,1519700451724488973,optoforce_0,-0.0140706345856,0.0869565217391,1.96399345336,0.0,0.0,0.0
1519700451774757092,7093,1519700451753494024,optoforce_0,-0.0422119037569,0.0724637681159,1.96399345336,0.0,0.0,0.0
1519700451808919287,7094,1519700451793382883,optoforce_0,-0.0281412691712,0.0579710144928,1.96399345336,0.0,0.0,0.0
1519700451873851402,7095,1519700451863264083,optoforce_0,-0.0281412691712,0.0869565217391,1.96399345336,0.0,0.0,0.0
1519700451906108278,7096,1519700451893472909,optoforce_0,-0.0281412691712,0.0724637681159,1.96399345336,0.0,0.0,0.0
1519700451942149586,7097,1519700451923350095,optoforce_0,-0.0422119037569,0.0434782608696,1.96399345336,0.0,0.0,0.0
1519700451975082605,7098,1519700451953583002,optoforce_0,-0.0140706345856,0.0579710144928,1.96399345336,0.0,0.0,0.0
1519700452006868003,7099,1519700451993459939,optoforce_0,-0.0281412691712,0.0869565217391,1.96399345336,0.0,0.0,0.0
1519700452040656219,7100,1519700452023426055,optoforce_0,-0.0281412691712,0.0724637681159,2.12765957447,0.0,0.0,0.0
1519700452073999367,7101,1519700452053553104,optoforce_0,-0.0281412691712,0.0579710144928,1.96399345336,0.0,0.0,0.0
1519700452107062883,7102,1519700452093386888,optoforce_0,-0.0140706345856,0.0579710144928,1.96399345336,0.0,0.0,0.0
1519700452140283428,7103,1519700452123871088,optoforce_0,-0.0140706345856,0.0869565217391,1.96399345336,0.0,0.0,0.0
1519700452173587352,7104,1519700452153857946,optoforce_0,-0.0281412691712,0.0869565217391,1.96399345336,0.0,0.0,0.0
1519700452207007557,7105,1519700452193471908,optoforce_0,-0.0422119037569,0.0434782608696,1.96399345336,0.0,0.0,0.0
1519700452238316863,7106,1519700452223335027,optoforce_0,-0.0140706345856,0.0579710144928,1.96399345336,0.0,0.0,0.0
1519700452273244554,7107,1519700452253617048,optoforce_0,-0.0140706345856,0.0724637681159,1.96399345336,0.0,0.0,0.0
1519700452307669429,7108,1519700452293487071,optoforce_0,-0.0422119037569,0.0579710144928,2.12765957447,0.0,0.0,0.0
1519700452339819393,7109,1519700452323466062,optoforce_0,-0.0281412691712,0.0579710144928,1.96399345336,0.0,0.0,0.0
1519700452373651097,7110,1519700452353596925,optoforce_0,-0.0140706345856,0.0579710144928,1.96399345336,0.0,0.0,0.0
1519700452407623787,7111,1519700452393471956,optoforce_0,-0.0281412691712,0.0869565217391,1.96399345336,0.0,0.0,0.0
1519700452440412811,7112,1519700452423489093,optoforce_0,-0.0422119037569,0.0869565217391,1.96399345336,0.0,0.0,0.0
1519700452474165498,7113,1519700452453634023,optoforce_0,-0.0422119037569,0.0434782608696,2.12765957447,0.0,0.0,0.0
1519700452507755076,7114,1519700452494406938,optoforce_0,-0.0140706345856,0.0724637681159,2.12765957447,0.0,0.0,0.0
1519700452539664242,7115,1519700452523462057,optoforce_0,-0.0281412691712,0.0869565217391,1.96399345336,0.0,0.0,0.0
1519700452574369118,7116,1519700452553673982,optoforce_0,-0.0281412691712,0.0724637681159,1.96399345336,0.0,0.0,0.0
1519700452607343062,7117,1519700452593662023,optoforce_0,-0.0422119037569,0.0579710144928,1.96399345336,0.0,0.0,0.0
1519700452639685564,7118,1519700452623569011,optoforce_0,-0.0140706345856,0.0579710144928,1.96399345336,0.0,0.0,0.0
1519700452672787297,7119,1519700452653633117,optoforce_0,-0.0281412691712,0.0724637681159,1.96399345336,0.0,0.0,0.0
1519700452705646882,7120,1519700452693451881,optoforce_0,-0.0422119037569,0.0724637681159,1.96399345336,0.0,0.0,0.0
1519700452739685226,7121,1519700452723601102,optoforce_0,-0.0422119037569,0.0579710144928,1.96399345336,0.0,0.0,0.0
1519700452775240494,7122,1519700452753633022,optoforce_0,0.0,0.0579710144928,1.96399345336,0.0,0.0,0.0
1519700452814708525,7123,1519700452793498039,optoforce_0,-0.0422119037569,0.0724637681159,1.96399345336,0.0,0.0,0.0
1519700452840634518,7124,1519700452823452949,optoforce_0,-0.0422119037569,0.0869565217391,1.96399345336,0.0,0.0,0.0
1519700452875004387,7125,1519700452853682994,optoforce_0,-0.0140706345856,0.0434782608696,1.96399345336,0.0,0.0,0.0
1519700452907773162,7126,1519700452893575906,optoforce_0,-0.0140706345856,0.0724637681159,1.96399345336,0.0,0.0,0.0
1519700452941034220,7127,1519700452923556089,optoforce_0,-0.0422119037569,0.0869565217391,1.96399345336,0.0,0.0,0.0
1519700452973228232,7128,1519700452953560113,optoforce_0,-0.0422119037569,0.0724637681159,1.96399345336,0.0,0.0,0.0
1519700453005130548,7129,1519700452993499040,optoforce_0,-0.0140706345856,0.0579710144928,2.12765957447,0.0,0.0,0.0
1519700453038175641,7130,1519700453023627042,optoforce_0,-0.0140706345856,0.0579710144928,1.96399345336,0.0,0.0,0.0
1519700453072462470,7131,1519700453053682088,optoforce_0,-0.0281412691712,0.0869565217391,1.96399345336,0.0,0.0,0.0
1519700453106983678,7132,1519700453093630075,optoforce_0,-0.0422119037569,0.0869565217391,1.96399345336,0.0,0.0,0.0
1519700453139893559,7133,1519700453123614072,optoforce_0,-0.0281412691712,0.0579710144928,1.96399345336,0.0,0.0,0.0
1519700453174887405,7134,1519700453153707027,optoforce_0,-0.0140706345856,0.0579710144928,2.12765957447,0.0,0.0,0.0
1519700453207543578,7135,1519700453193639993,optoforce_0,-0.0281412691712,0.0869565217391,1.96399345336,0.0,0.0,0.0
1519700453239689421,7136,1519700453223802089,optoforce_0,-0.0422119037569,0.0724637681159,1.96399345336,0.0,0.0,0.0
1519700453274005669,7137,1519700453253711938,optoforce_0,-0.0422119037569,0.0724637681159,1.96399345336,0.0,0.0,0.0
1519700453307133605,7138,1519700453294100999,optoforce_0,-0.0140706345856,0.0579710144928,1.96399345336,0.0,0.0,0.0
1519700453339246540,7139,1519700453323658943,optoforce_0,-0.0140706345856,0.0724637681159,1.96399345336,0.0,0.0,0.0
1519700453372122825,7140,1519700453353728055,optoforce_0,-0.0422119037569,0.0724637681159,1.96399345336,0.0,0.0,0.0
1519700453406436577,7141,1519700453393673896,optoforce_0,-0.0422119037569,0.0579710144928,2.12765957447,0.0,0.0,0.0
1519700453437807798,7142,1519700453423705101,optoforce_0,-0.0140706345856,0.0579710144928,1.96399345336,0.0,0.0,0.0
1519700453473186673,7143,1519700453453728914,optoforce_0,-0.0140706345856,0.0724637681159,1.96399345336,0.0,0.0,0.0
1519700453507453819,7144,1519700453493721008,optoforce_0,-0.0422119037569,0.0724637681159,1.96399345336,0.0,0.0,0.0
1519700453539905724,7145,1519700453523706912,optoforce_0,-0.0422119037569,0.0724637681159,1.96399345336,0.0,0.0,0.0
1519700453573729869,7146,1519700453553745031,optoforce_0,-0.0140706345856,0.0579710144928,2.12765957447,0.0,0.0,0.0
1519700453607434219,7147,1519700453583667039,optoforce_0,-0.0281412691712,0.0724637681159,1.96399345336,0.0,0.0,0.0
1519700453640420096,7148,1519700453623665094,optoforce_0,-0.0281412691712,0.0724637681159,1.96399345336,0.0,0.0,0.0
1519700453674437062,7149,1519700453655210971,optoforce_0,-0.0422119037569,0.0724637681159,1.96399345336,0.0,0.0,0.0
1519700453706800153,7150,1519700453683600902,optoforce_0,-0.0281412691712,0.0579710144928,2.12765957447,0.0,0.0,0.0
1519700453737926919,7151,1519700453723706007,optoforce_0,0.0,0.0724637681159,2.12765957447,0.0,0.0,0.0
1519700453772409679,7152,1519700453753853082,optoforce_0,-0.0422119037569,0.0724637681159,1.96399345336,0.0,0.0,0.0
1519700453805803010,7153,1519700453793749094,optoforce_0,-0.0281412691712,0.0724637681159,1.96399345336,0.0,0.0,0.0
1519700453839796573,7154,1519700453823853969,optoforce_0,-0.0140706345856,0.0579710144928,1.96399345336,0.0,0.0,0.0
1519700453873268024,7155,1519700453853815078,optoforce_0,-0.0140706345856,0.0724637681159,1.96399345336,0.0,0.0,0.0
1519700453907006733,7156,1519700453883642911,optoforce_0,-0.0281412691712,0.0579710144928,1.96399345336,0.0,0.0,0.0
1519700453940160582,7157,1519700453923770904,optoforce_0,-0.0281412691712,0.0724637681159,2.12765957447,0.0,0.0,0.0
1519700453974177525,7158,1519700453953857898,optoforce_0,-0.0281412691712,0.0579710144928,2.12765957447,0.0,0.0,0.0
1519700454006720125,7159,1519700453983647108,optoforce_0,-0.0140706345856,0.0724637681159,1.96399345336,0.0,0.0,0.0
1519700454040168759,7160,1519700454023772954,optoforce_0,-0.0422119037569,0.0869565217391,1.96399345336,0.0,0.0,0.0
1519700454073875632,7161,1519700454053868055,optoforce_0,-0.0281412691712,0.0869565217391,1.96399345336,0.0,0.0,0.0
1519700454106424558,7162,1519700454083673000,optoforce_0,-0.0281412691712,0.0579710144928,2.12765957447,0.0,0.0,0.0
1519700454138046457,7163,1519700454123761892,optoforce_0,-0.0140706345856,0.0724637681159,1.96399345336,0.0,0.0,0.0
1519700454173371401,7164,1519700454153836011,optoforce_0,-0.0422119037569,0.0869565217391,1.96399345336,0.0,0.0,0.0
1519700454205096455,7165,1519700454183675050,optoforce_0,-0.0562825383425,0.0869565217391,2.12765957447,0.0,0.0,0.0
1519700454240767390,7166,1519700454223822116,optoforce_0,0.0562825383425,0.130434782609,1.96399345336,0.0,0.0,0.0
1519700454273422227,7167,1519700454253848075,optoforce_0,0.267342057127,0.347826086957,1.63666121113,0.0,0.0,0.0
1519700454307236846,7168,1519700454293914079,optoforce_0,0.464330941325,0.608695652174,0.818330605565,0.0,0.0,0.0
1519700454340404754,7169,1519700454323843002,optoforce_0,0.647249190939,0.855072463768,0.0,0.0,0.0,0.0
1519700454374798488,7170,1519700454353904962,optoforce_0,0.956803151822,1.17391304348,-0.981996726678,0.0,0.0,0.0
1519700454406975524,7171,1519700454383728027,optoforce_0,1.28042774729,1.52173913043,-1.96399345336,0.0,0.0,0.0
1519700454439520077,7172,1519700454424052000,optoforce_0,1.68847615027,2.02898550725,-4.25531914894,0.0,0.0,0.0
1519700454472983294,7173,1519700454453996896,optoforce_0,2.26537216828,2.59420289855,-6.3829787234,0.0,0.0,0.0
1519700454504584040,7174,1519700454493858098,optoforce_0,2.92669199381,3.34782608696,-9.00163666121,0.0,0.0,0.0
1519700454539421187,7175,1519700454523853063,optoforce_0,3.33474039679,3.73913043478,-11.2929623568,0.0,0.0,0.0
1519700454572148390,7176,1519700454553940057,optoforce_0,3.67243562685,4.07246376812,-13.4206219313,0.0,0.0,0.0
1519700454607215551,7177,1519700454593832015,optoforce_0,3.75685943436,4.08695652174,-15.2209492635,0.0,0.0,0.0
1519700454640628173,7178,1519700454623929023,optoforce_0,3.64429435768,3.86956521739,-16.3666121113,0.0,0.0,0.0
1519700454674759219,7179,1519700454653944969,optoforce_0,3.60208245392,3.63768115942,-17.348608838,0.0,0.0,0.0
1519700454708925486,7180,1519700454683764934,optoforce_0,3.33474039679,3.28985507246,-18.3306055646,0.0,0.0,0.0
1519700454739820607,7181,1519700454723923921,optoforce_0,3.15182214718,3.07246376812,-19.4762684124,0.0,0.0,0.0
1519700454774018468,7182,1519700454753938913,optoforce_0,3.17996341635,3.02898550725,-20.1309328969,0.0,0.0,0.0
1519700454813392309,7183,1519700454783756017,optoforce_0,2.99704516674,2.84057971014,-20.294599018,0.0,0.0,0.0
1519700454846432433,7184,1519700454834050893,optoforce_0,2.87040945547,2.72463768116,-19.3126022913,0.0,0.0,0.0
1519700454875865345,7185,1519700454853918075,optoforce_0,2.6452793021,2.53623188406,-18.1669394435,0.0,0.0,0.0
1519700454906878529,7186,1519700454894056081,optoforce_0,1.98395947657,1.84057971014,-15.0572831424,0.0,0.0,0.0
1519700454938531207,7187,1519700454923932075,optoforce_0,1.36485155481,1.17391304348,-11.1292962357,0.0,0.0,0.0
1519700454972865232,7188,1519700454953999042,optoforce_0,0.633178556353,0.449275362319,-6.71031096563,0.0,0.0,0.0
1519700455006603186,7189,1519700454983835935,optoforce_0,0.0,-0.101449275362,-3.43698854337,0.0,0.0,0.0
1519700455040326552,7190,1519700455023994922,optoforce_0,-0.323624595469,-0.304347826087,-0.327332242226,0.0,0.0,0.0
1519700455074495304,7191,1519700455054027080,optoforce_0,-0.112565076685,-0.159420289855,0.818330605565,0.0,0.0,0.0
1519700455107339753,7192,1519700455083878993,optoforce_0,-0.0281412691712,-0.101449275362,1.3093289689,0.0,0.0,0.0
1519700455140259212,7193,1519700455123986959,optoforce_0,-0.154776980442,-0.173913043478,1.47299509002,0.0,0.0,0.0
1519700455175644623,7194,1519700455154063940,optoforce_0,-0.140706345856,-0.217391304348,1.63666121113,0.0,0.0,0.0
1519700455207777589,7195,1519700455183923006,optoforce_0,0.0422119037569,0.0,1.47299509002,0.0,0.0,0.0
1519700455242329395,7196,1519700455224097013,optoforce_0,0.22513015337,0.289855072464,1.63666121113,0.0,0.0,0.0
1519700455274245645,7197,1519700455254177093,optoforce_0,0.0422119037569,0.101449275362,1.63666121113,0.0,0.0,0.0
1519700455306595753,7198,1519700455293945074,optoforce_0,0.0140706345856,0.0579710144928,1.63666121113,0.0,0.0,0.0
1519700455338825192,7199,1519700455324152946,optoforce_0,0.126635711271,0.130434782609,1.63666121113,0.0,0.0,0.0
1519700455374243226,7200,1519700455354407072,optoforce_0,0.112565076685,0.159420289855,1.63666121113,0.0,0.0,0.0
1519700455406231587,7201,1519700455383924007,optoforce_0,0.0281412691712,0.101449275362,1.63666121113,0.0,0.0,0.0
1519700455440017599,7202,1519700455424072980,optoforce_0,0.0562825383425,0.101449275362,1.63666121113,0.0,0.0,0.0
1519700455474478780,7203,1519700455454179048,optoforce_0,0.0984944420993,0.115942028986,1.80032733224,0.0,0.0,0.0
1519700455507523710,7204,1519700455483905076,optoforce_0,0.0562825383425,0.130434782609,1.63666121113,0.0,0.0,0.0
1519700455540611011,7205,1519700455524089097,optoforce_0,0.0281412691712,0.115942028986,1.80032733224,0.0,0.0,0.0
1519700455575741927,7206,1519700455554184913,optoforce_0,0.0562825383425,0.101449275362,1.80032733224,0.0,0.0,0.0
1519700455607594674,7207,1519700455594130039,optoforce_0,0.0703531729281,0.0869565217391,1.80032733224,0.0,0.0,0.0
1519700455639570938,7208,1519700455624164104,optoforce_0,0.0562825383425,0.115942028986,1.63666121113,0.0,0.0,0.0
1519700455673625604,7209,1519700455654138088,optoforce_0,0.0422119037569,0.115942028986,1.80032733224,0.0,0.0,0.0
1519700455705828977,7210,1519700455694096088,optoforce_0,0.0562825383425,0.101449275362,1.80032733224,0.0,0.0,0.0
1519700455738400006,7211,1519700455724081993,optoforce_0,0.0703531729281,0.101449275362,1.80032733224,0.0,0.0,0.0
1519700455774199856,7212,1519700455754205942,optoforce_0,0.0422119037569,0.101449275362,1.63666121113,0.0,0.0,0.0
1519700455806581247,7213,1519700455794123888,optoforce_0,-0.0140706345856,0.101449275362,1.47299509002,0.0,0.0,0.0
1519700455840429152,7214,1519700455824233055,optoforce_0,-0.0703531729281,0.0144927536232,1.14566284779,0.0,0.0,0.0
1519700455873879785,7215,1519700455854276895,optoforce_0,-0.0984944420993,0.0,0.654664484452,0.0,0.0,0.0
1519700455907575193,7216,1519700455884048938,optoforce_0,-0.196988884199,-0.0289855072464,-0.327332242226,0.0,0.0,0.0
1519700455940006322,7217,1519700455924336910,optoforce_0,-0.239200787956,-0.0579710144928,-1.96399345336,0.0,0.0,0.0
1519700455974628631,7218,1519700455954272985,optoforce_0,-0.211059518784,-0.144927536232,-3.43698854337,0.0,0.0,0.0
1519700456006055589,7219,1519700455984059095,optoforce_0,-0.0844238075137,-0.144927536232,-5.23731587561,0.0,0.0,0.0
1519700456037831079,7220,1519700456024126052,optoforce_0,0.0703531729281,-0.0724637681159,-8.8379705401,0.0,0.0,0.0
1519700456073917053,7221,1519700456054258108,optoforce_0,0.295483326298,-0.0434782608696,-12.1112929624,0.0,0.0,0.0
1519700456106427062,7222,1519700456094120979,optoforce_0,0.647249190939,0.101449275362,-17.348608838,0.0,0.0,0.0
1519700456138789042,7223,1519700456124176025,optoforce_0,1.06936822851,0.434782608696,-22.4222585925,0.0,0.0,0.0
1519700456175187758,7224,1519700456154272079,optoforce_0,1.4633459969,0.898550724638,-27.6595744681,0.0,0.0,0.0
1519700456207169601,7225,1519700456184077978,optoforce_0,1.78697059237,1.39130434783,-31.5875613748,0.0,0.0,0.0
1519700456240516686,7226,1519700456224211931,optoforce_0,1.94174757282,1.60869565217,-34.0425531915,0.0,0.0,0.0
1519700456275094148,7227,1519700456254306077,optoforce_0,1.92767693823,1.60869565217,-34.6972176759,0.0,0.0,0.0
1519700456307055537,7228,1519700456284193038,optoforce_0,1.87139439989,1.5652173913,-34.6972176759,0.0,0.0,0.0
1519700456341119043,7229,1519700456324301958,optoforce_0,1.7588293232,1.30434782609,-34.0425531915,0.0,0.0,0.0
1519700456371669341,7230,1519700456354362964,optoforce_0,1.70254678486,1.20289855072,-33.387888707,0.0,0.0,0.0
1519700456405264505,7231,1519700456384176969,optoforce_0,1.6603348811,1.05797101449,-32.5695581015,0.0,0.0,0.0
1519700456437758679,7232,1519700456424209117,optoforce_0,1.44927536232,0.739130434783,-30.1145662848,0.0,0.0,0.0
1519700456472981066,7233,1519700456454459905,optoforce_0,1.33671028563,0.434782608696,-25.8592471358,0.0,0.0,0.0
1519700456508094600,7234,1519700456494462966,optoforce_0,0.830167440552,-0.217391304348,-18.821603928,0.0,0.0,0.0
1519700456539697535,7235,1519700456524312019,optoforce_0,0.506542845082,-0.31884057971,-12.6022913257,0.0,0.0,0.0
1519700456574228356,7236,1519700456554404020,optoforce_0,0.182918249613,-0.260869565217,-7.20130932897,0.0,0.0,0.0
1519700456607316249,7237,1519700456594453096,optoforce_0,-0.126635711271,-0.289855072464,-2.12765957447,0.0,0.0,0.0
1519700456640475961,7238,1519700456624258041,optoforce_0,-0.0281412691712,-0.0869565217391,0.163666121113,0.0,0.0,0.0
1519700456674022703,7239,1519700456654453039,optoforce_0,0.323624595469,0.188405797101,0.818330605565,0.0,0.0,0.0
1519700456707247313,7240,1519700456684197902,optoforce_0,0.281412691712,0.173913043478,1.14566284779,0.0,0.0,0.0
1519700456739853580,7241,1519700456724301099,optoforce_0,0.140706345856,0.0434782608696,1.47299509002,0.0,0.0,0.0
1519700456772422180,7242,1519700456754482030,optoforce_0,0.239200787956,0.0869565217391,1.47299509002,0.0,0.0,0.0
1519700456805670818,7243,1519700456794512987,optoforce_0,0.196988884199,0.144927536232,1.14566284779,0.0,0.0,0.0
1519700456838109417,7244,1519700456824381113,optoforce_0,0.0984944420993,0.101449275362,1.14566284779,0.0,0.0,0.0
1519700456873803910,7245,1519700456854434967,optoforce_0,0.126635711271,0.0724637681159,1.3093289689,0.0,0.0,0.0
1519700456907404953,7246,1519700456884201049,optoforce_0,0.168847615027,0.0869565217391,1.3093289689,0.0,0.0,0.0
1519700456940755785,7247,1519700456924388885,optoforce_0,0.140706345856,0.101449275362,1.3093289689,0.0,0.0,0.0
1519700456974303145,7248,1519700456954467058,optoforce_0,0.112565076685,0.0869565217391,1.3093289689,0.0,0.0,0.0
1519700457007130310,7249,1519700456984208106,optoforce_0,0.126635711271,0.101449275362,1.3093289689,0.0,0.0,0.0
1519700457040216393,7250,1519700457024384021,optoforce_0,0.140706345856,0.0869565217391,1.47299509002,0.0,0.0,0.0
1519700457073938870,7251,1519700457054497003,optoforce_0,0.154776980442,0.0724637681159,1.47299509002,0.0,0.0,0.0
1519700457107980000,7252,1519700457084255933,optoforce_0,0.126635711271,0.0869565217391,1.47299509002,0.0,0.0,0.0
1519700457138610898,7253,1519700457124428033,optoforce_0,0.126635711271,0.0869565217391,1.47299509002,0.0,0.0,0.0
1519700457172283313,7254,1519700457154479026,optoforce_0,0.211059518784,0.159420289855,1.3093289689,0.0,0.0,0.0
1519700457206058059,7255,1519700457184271097,optoforce_0,0.379907133812,0.31884057971,1.14566284779,0.0,0.0,0.0
1519700457238508487,7256,1519700457224421977,optoforce_0,0.534684114254,0.579710144928,0.490998363339,0.0,0.0,0.0
1519700457274207330,7257,1519700457254503965,optoforce_0,0.731672998452,0.797101449275,0.0,0.0,0.0,0.0
1519700457307371491,7258,1519700457294296026,optoforce_0,1.08343886309,1.13043478261,-0.981996726678,0.0,0.0,0.0
1519700457339877434,7259,1519700457324373960,optoforce_0,1.30856901646,1.36231884058,-1.47299509002,0.0,0.0,0.0
1519700457373773402,7260,1519700457354523897,optoforce_0,1.42113409315,1.59420289855,-2.29132569558,0.0,0.0,0.0
1519700457407336969,7261,1519700457384299993,optoforce_0,1.74475868862,2.0,-3.27332242226,0.0,0.0,0.0
1519700457441552587,7262,1519700457424521923,optoforce_0,2.04024201491,2.36231884058,-4.41898527005,0.0,0.0,0.0
1519700457473896147,7263,1519700457454494953,optoforce_0,2.40607851414,2.88405797101,-5.72831423895,0.0,0.0,0.0
1519700457506344956,7264,1519700457484338998,optoforce_0,3.06739833967,3.76811594203,-7.20130932897,0.0,0.0,0.0
1519700457538773677,7265,1519700457524482965,optoforce_0,3.58801181933,4.65217391304,-9.81996726678,0.0,0.0,0.0
1519700457572564880,7266,1519700457554507017,optoforce_0,4.24933164486,5.59420289855,-12.1112929624,0.0,0.0,0.0
1519700457606754442,7267,1519700457584320068,optoforce_0,5.22020543126,6.85507246377,-13.7479541735,0.0,0.0,0.0
1519700457640037470,7268,1519700457624600887,optoforce_0,6.13479667933,8.36231884058,-17.348608838,0.0,0.0,0.0
1519700457673832791,7269,1519700457654563903,optoforce_0,7.0493879274,9.84057971014,-19.8036006547,0.0,0.0,0.0
1519700457707319071,7270,1519700457684328079,optoforce_0,8.42831011679,11.7246376812,-20.1309328969,0.0,0.0,0.0
1519700457740854362,7271,1519700457724426984,optoforce_0,9.27254819192,13.1449275362,-22.5859247136,0.0,0.0,0.0
1519700457776314522,7272,1519700457754641056,optoforce_0,9.80723230618,13.3623188406,-20.6219312602,0.0,0.0,0.0
1519700457809196182,7273,1519700457784446001,optoforce_0,10.1449275362,13.2608695652,-18.0032733224,0.0,0.0,0.0
1519700457841375269,7274,1519700457824723958,optoforce_0,9.83537357535,12.5507246377,-17.348608838,0.0,0.0,0.0
1519700457879775949,7275,1519700457854648113,optoforce_0,9.76502040242,12.2608695652,-15.875613748,0.0,0.0,0.0
1519700457905561547,7276,1519700457884548902,optoforce_0,9.94793865203,12.3188405797,-16.2029459902,0.0,0.0,0.0
1519700457938601964,7277,1519700457924539089,optoforce_0,10.18713944,12.347826087,-16.3666121113,0.0,0.0,0.0
1519700457973265068,7278,1519700457954668998,optoforce_0,9.96200928662,12.1884057971,-16.3666121113,0.0,0.0,0.0
1519700458008005003,7279,1519700457984389066,optoforce_0,9.90572674828,11.8405797101,-14.2389525368,0.0,0.0,0.0
1519700458041269497,7280,1519700458024547100,optoforce_0,9.86351484452,11.1304347826,-10.6382978723,0.0,0.0,0.0
1519700458074448791,7281,1519700458054624080,optoforce_0,9.27254819192,10.1014492754,-9.65630114566,0.0,0.0,0.0
1519700458107565588,7282,1519700458094700098,optoforce_0,8.56901646264,8.89855072464,-7.36497545008,0.0,0.0,0.0
1519700458140167610,7283,1519700458124660968,optoforce_0,7.75291965668,7.75362318841,-5.56464811784,0.0,0.0,0.0
1519700458174167400,7284,1519700458154606103,optoforce_0,6.4584212748,6.17391304348,-4.58265139116,0.0,0.0,0.0
1519700458207028817,7285,1519700458184523105,optoforce_0,5.10764035458,4.6231884058,-3.27332242226,0.0,0.0,0.0
1519700458239862601,7286,1519700458224587917,optoforce_0,3.26438722386,2.72463768116,-1.47299509002,0.0,0.0,0.0
1519700458272267861,7287,1519700458254580020,optoforce_0,2.27944280287,1.71014492754,-0.163666121113,0.0,0.0,0.0
1519700458305993015,7288,1519700458284441947,optoforce_0,1.50555790066,1.17391304348,0.981996726678,0.0,0.0,0.0
1519700458338925881,7289,1519700458324598073,optoforce_0,0.647249190939,0.507246376812,1.47299509002,0.0,0.0,0.0
1519700458373727846,7290,1519700458354707956,optoforce_0,0.295483326298,0.246376811594,1.63666121113,0.0,0.0,0.0
1519700458406660782,7291,1519700458384529113,optoforce_0,0.267342057127,0.275362318841,1.96399345336,0.0,0.0,0.0
1519700458439831783,7292,1519700458424613952,optoforce_0,0.168847615027,0.173913043478,2.12765957447,0.0,0.0,0.0
1519700458475022597,7293,1519700458454716920,optoforce_0,0.0422119037569,0.0144927536232,1.96399345336,0.0,0.0,0.0
1519700458507276797,7294,1519700458494811058,optoforce_0,0.0140706345856,0.0724637681159,1.63666121113,0.0,0.0,0.0
1519700458541890695,7295,1519700458524657964,optoforce_0,0.22513015337,0.333333333333,1.3093289689,0.0,0.0,0.0
1519700458576149533,7296,1519700458554682016,optoforce_0,0.323624595469,0.420289855072,1.63666121113,0.0,0.0,0.0
1519700458609071786,7297,1519700458584564924,optoforce_0,0.267342057127,0.333333333333,1.63666121113,0.0,0.0,0.0
1519700458639013577,7298,1519700458624596118,optoforce_0,0.126635711271,0.217391304348,1.47299509002,0.0,0.0,0.0
1519700458672656315,7299,1519700458654670953,optoforce_0,0.168847615027,0.289855072464,1.47299509002,0.0,0.0,0.0
1519700458705653735,7300,1519700458684515953,optoforce_0,0.182918249613,0.304347826087,1.63666121113,0.0,0.0,0.0
1519700458739597207,7301,1519700458724693059,optoforce_0,0.140706345856,0.231884057971,1.63666121113,0.0,0.0,0.0
1519700458773718204,7302,1519700458754702091,optoforce_0,0.140706345856,0.231884057971,1.63666121113,0.0,0.0,0.0
1519700458806916058,7303,1519700458784547090,optoforce_0,0.126635711271,0.260869565217,1.63666121113,0.0,0.0,0.0
1519700458839733585,7304,1519700458824708938,optoforce_0,0.126635711271,0.246376811594,1.63666121113,0.0,0.0,0.0
1519700458874593371,7305,1519700458854739904,optoforce_0,0.126635711271,0.217391304348,1.63666121113,0.0,0.0,0.0
1519700458907518498,7306,1519700458884593963,optoforce_0,0.112565076685,0.231884057971,1.63666121113,0.0,0.0,0.0
1519700458940230578,7307,1519700458924722909,optoforce_0,0.0703531729281,0.217391304348,1.63666121113,0.0,0.0,0.0
1519700458974484207,7308,1519700458954766988,optoforce_0,0.0844238075137,0.202898550725,1.80032733224,0.0,0.0,0.0
1519700459006608913,7309,1519700458994720935,optoforce_0,0.0844238075137,0.202898550725,1.80032733224,0.0,0.0,0.0
1519700459038793028,7310,1519700459024815082,optoforce_0,0.0984944420993,0.188405797101,1.80032733224,0.0,0.0,0.0
1519700459073220715,7311,1519700459054755926,optoforce_0,0.0703531729281,0.202898550725,1.63666121113,0.0,0.0,0.0
1519700459106907509,7312,1519700459084650993,optoforce_0,0.0562825383425,0.202898550725,1.63666121113,0.0,0.0,0.0
1519700459140509935,7313,1519700459124774932,optoforce_0,0.0562825383425,0.202898550725,1.80032733224,0.0,0.0,0.0
1519700459174539211,7314,1519700459154839038,optoforce_0,0.0562825383425,0.159420289855,1.80032733224,0.0,0.0,0.0
1519700459207075790,7315,1519700459184659957,optoforce_0,0.0562825383425,0.173913043478,1.80032733224,0.0,0.0,0.0
1519700459239691834,7316,1519700459224869012,optoforce_0,0.0562825383425,0.217391304348,1.63666121113,0.0,0.0,0.0
1519700459274120309,7317,1519700459254820108,optoforce_0,0.182918249613,0.31884057971,1.47299509002,0.0,0.0,0.0
1519700459307426693,7318,1519700459294929981,optoforce_0,0.492472210497,0.536231884058,0.818330605565,0.0,0.0,0.0
1519700459340199438,7319,1519700459324820995,optoforce_0,0.717602363867,0.739130434783,-0.490998363339,0.0,0.0,0.0
1519700459373306724,7320,1519700459354871988,optoforce_0,0.886449978894,0.942028985507,-1.80032733224,0.0,0.0,0.0
1519700459405566257,7321,1519700459384861946,optoforce_0,1.12565076685,1.23188405797,-3.60065466448,0.0,0.0,0.0
1519700459438168713,7322,1519700459424819946,optoforce_0,1.49148726608,1.59420289855,-8.01963993453,0.0,0.0,0.0
1519700459472248393,7323,1519700459454829931,optoforce_0,1.87139439989,2.13043478261,-11.2929623568,0.0,0.0,0.0
1519700459506993562,7324,1519700459494730949,optoforce_0,2.37793724497,2.94202898551,-17.5122749591,0.0,0.0,0.0
1519700459539794628,7325,1519700459524787902,optoforce_0,2.78598564795,3.42028985507,-21.9312602291,0.0,0.0,0.0
1519700459574567049,7326,1519700459554925918,optoforce_0,2.96890389757,3.91304347826,-27.495908347,0.0,0.0,0.0
1519700459607868497,7327,1519700459584738016,optoforce_0,3.41916420431,4.5652173913,-32.2422258592,0.0,0.0,0.0
1519700459639708902,7328,1519700459624814987,optoforce_0,3.96791895314,5.60869565217,-38.9525368249,0.0,0.0,0.0
1519700459674148096,7329,1519700459654844045,optoforce_0,3.96791895314,6.10144927536,-44.6808510638,0.0,0.0,0.0
1519700459707304268,7330,1519700459684767007,optoforce_0,4.19304910651,6.76811594203,-49.9181669394,0.0,0.0,0.0
1519700459740558167,7331,1519700459724885940,optoforce_0,4.62923877867,8.10144927536,-56.9558101473,0.0,0.0,0.0
1519700459773516145,7332,1519700459754971027,optoforce_0,4.76994512453,8.91304347826,-61.7021276596,0.0,0.0,0.0
1519700459805113728,7333,1519700459784745931,optoforce_0,5.09356971999,9.72463768116,-64.6481178396,0.0,0.0,0.0
1519700459838203726,7334,1519700459824845075,optoforce_0,5.31869987336,10.0724637681,-65.7937806874,0.0,0.0,0.0
1519700459872914245,7335,1519700459854820013,optoforce_0,5.68453637259,10.4347826087,-64.9754500818,0.0,0.0,0.0
1519700459907626375,7336,1519700459884763002,optoforce_0,5.47347685381,10.0144927536,-65.6301145663,0.0,0.0,0.0
1519700459939861976,7337,1519700459924902915,optoforce_0,5.60011256508,9.91304347826,-63.829787234,0.0,0.0,0.0
1519700459974215943,7338,1519700459954878091,optoforce_0,5.51568875756,9.59420289855,-63.829787234,0.0,0.0,0.0
1519700460006740243,7339,1519700459984801054,optoforce_0,5.670465738,9.46376811594,-61.2111292962,0.0,0.0,0.0
1519700460040048796,7340,1519700460025518894,optoforce_0,5.17799352751,8.66666666667,-60.3927986907,0.0,0.0,0.0
1519700460073739130,7341,1519700460054868936,optoforce_0,4.93879273955,8.01449275362,-58.1014729951,0.0,0.0,0.0
1519700460107906252,7342,1519700460084990978,optoforce_0,4.95286337414,7.17391304348,-51.2274959083,0.0,0.0,0.0
1519700460138691743,7343,1519700460124916076,optoforce_0,4.6995919516,5.63768115942,-37.8068739771,0.0,0.0,0.0
1519700460172554776,7344,1519700460154911994,optoforce_0,4.33375545237,4.39130434783,-26.6775777414,0.0,0.0,0.0
1519700460206500548,7345,1519700460184818983,optoforce_0,3.88349514563,3.24637681159,-15.875613748,0.0,0.0,0.0
1519700460238616056,7346,1519700460224952936,optoforce_0,2.40607851414,1.40579710145,-5.23731587561,0.0,0.0,0.0
1519700460273806812,7347,1519700460254966020,optoforce_0,1.53369916983,0.492753623188,-1.96399345336,0.0,0.0,0.0
1519700460307350612,7348,1519700460284851074,optoforce_0,1.15379203602,0.521739130435,0.0,0.0,0.0,0.0
1519700460339362027,7349,1519700460325119018,optoforce_0,0.506542845082,0.188405797101,0.818330605565,0.0,0.0,0.0
1519700460374669685,7350,1519700460354919910,optoforce_0,0.281412691712,-0.0289855072464,0.981996726678,0.0,0.0,0.0
1519700460407482385,7351,1519700460384891986,optoforce_0,0.379907133812,0.130434782609,1.3093289689,0.0,0.0,0.0
1519700460440604748,7352,1519700460424953937,optoforce_0,0.379907133812,0.144927536232,1.3093289689,0.0,0.0,0.0
1519700460474139075,7353,1519700460454991102,optoforce_0,0.309553960884,0.217391304348,0.818330605565,0.0,0.0,0.0
1519700460507037645,7354,1519700460484935045,optoforce_0,0.0984944420993,0.217391304348,0.818330605565,0.0,0.0,0.0
1519700460539899567,7355,1519700460525011062,optoforce_0,0.211059518784,0.260869565217,0.981996726678,0.0,0.0,0.0
1519700460573225250,7356,1519700460555018901,optoforce_0,0.182918249613,0.260869565217,1.14566284779,0.0,0.0,0.0
1519700460606201664,7357,1519700460584949016,optoforce_0,0.126635711271,0.202898550725,1.14566284779,0.0,0.0,0.0
1519700460638126697,7358,1519700460625106096,optoforce_0,0.126635711271,0.202898550725,1.14566284779,0.0,0.0,0.0
1519700460674085902,7359,1519700460655030012,optoforce_0,0.126635711271,0.231884057971,1.14566284779,0.0,0.0,0.0
1519700460706851954,7360,1519700460684945106,optoforce_0,0.112565076685,0.231884057971,1.3093289689,0.0,0.0,0.0
1519700460739938870,7361,1519700460725114107,optoforce_0,0.112565076685,0.188405797101,1.3093289689,0.0,0.0,0.0
1519700460774534373,7362,1519700460755048990,optoforce_0,0.112565076685,0.202898550725,1.3093289689,0.0,0.0,0.0
1519700460807067732,7363,1519700460784976959,optoforce_0,0.0844238075137,0.217391304348,1.3093289689,0.0,0.0,0.0
1519700460841497111,7364,1519700460825548887,optoforce_0,0.0984944420993,0.188405797101,1.3093289689,0.0,0.0,0.0
1519700460875549794,7365,1519700460855004072,optoforce_0,0.112565076685,0.188405797101,1.3093289689,0.0,0.0,0.0
1519700460908638630,7366,1519700460885185956,optoforce_0,0.0984944420993,0.202898550725,1.3093289689,0.0,0.0,0.0
1519700460939305968,7367,1519700460925375938,optoforce_0,0.0844238075137,0.202898550725,1.3093289689,0.0,0.0,0.0
1519700460972160336,7368,1519700460955188989,optoforce_0,0.0844238075137,0.173913043478,1.47299509002,0.0,0.0,0.0
1519700461005487779,7369,1519700460984982013,optoforce_0,0.0984944420993,0.173913043478,1.47299509002,0.0,0.0,0.0
1519700461038978795,7370,1519700461025126934,optoforce_0,0.0844238075137,0.202898550725,1.3093289689,0.0,0.0,0.0
1519700461072200361,7371,1519700461055115938,optoforce_0,0.0703531729281,0.202898550725,1.47299509002,0.0,0.0,0.0
1519700461105981487,7372,1519700461084943056,optoforce_0,0.0703531729281,0.159420289855,1.47299509002,0.0,0.0,0.0
1519700461137893693,7373,1519700461125310897,optoforce_0,0.0984944420993,0.173913043478,1.47299509002,0.0,0.0,0.0
1519700461172031071,7374,1519700461155198097,optoforce_0,0.0844238075137,0.202898550725,1.47299509002,0.0,0.0,0.0
1519700461205172310,7375,1519700461184979915,optoforce_0,0.253271422541,0.391304347826,1.14566284779,0.0,0.0,0.0
1519700461238176574,7376,1519700461225188970,optoforce_0,0.928661882651,1.08695652174,0.327332242226,0.0,0.0,0.0
1519700461276608546,7377,1519700461255211114,optoforce_0,1.60405234276,1.92753623188,-0.981996726678,0.0,0.0,0.0
1519700461309531246,7378,1519700461295355081,optoforce_0,2.60306739834,3.39130434783,-3.10965630115,0.0,0.0,0.0
1519700461343828070,7379,1519700461325272083,optoforce_0,3.57394118475,4.75362318841,-4.74631751227,0.0,0.0,0.0
1519700461375358990,7380,1519700461355237960,optoforce_0,4.75587448994,6.4347826087,-5.72831423895,0.0,0.0,0.0
1519700461406555440,7381,1519700461385149002,optoforce_0,5.92373716055,7.98550724638,-5.40098199673,0.0,0.0,0.0
1519700461439879660,7382,1519700461425309896,optoforce_0,7.28858871535,9.5652173913,-4.25531914894,0.0,0.0,0.0
1519700461473498630,7383,1519700461455202102,optoforce_0,7.73884902209,10.0144927536,-4.09165302782,0.0,0.0,0.0
1519700461506419180,7384,1519700461485124111,optoforce_0,7.83734346419,9.98550724638,-4.41898527005,0.0,0.0,0.0
1519700461537713862,7385,1519700461525376081,optoforce_0,8.1187561559,10.115942029,-4.74631751227,0.0,0.0,0.0
1519700461572866786,7386,1519700461555207014,optoforce_0,8.3157450401,10.2898550725,-5.0736497545,0.0,0.0,0.0
1519700461608485572,7387,1519700461585078954,optoforce_0,8.27353313634,10.1739130435,-5.72831423895,0.0,0.0,0.0
1519700461640234583,7388,1519700461625574111,optoforce_0,8.6112283664,10.1884057971,-5.0736497545,0.0,0.0,0.0
1519700461673549175,7389,1519700461655198097,optoforce_0,8.5127339243,9.98550724638,-4.74631751227,0.0,0.0,0.0
1519700461707374022,7390,1519700461685216903,optoforce_0,7.94990854088,9.49275362319,-5.0736497545,0.0,0.0,0.0
1519700461740860333,7391,1519700461725220918,optoforce_0,8.17503869425,9.69565217391,-4.74631751227,0.0,0.0,0.0
1519700461774020588,7392,1519700461755320072,optoforce_0,7.97804981005,9.44927536232,-4.09165302782,0.0,0.0,0.0
1519700461807671266,7393,1519700461785293102,optoforce_0,7.48557759955,8.75362318841,-4.25531914894,0.0,0.0,0.0
1519700461840102104,7394,1519700461825182914,optoforce_0,6.73983396651,7.63768115942,-4.09165302782,0.0,0.0,0.0
1519700461872430838,7395,1519700461855354070,optoforce_0,5.65639510342,6.15942028986,-3.60065466448,0.0,0.0,0.0
1519700461906849806,7396,1519700461895454883,optoforce_0,3.53172928099,3.6231884058,-3.10965630115,0.0,0.0,0.0
1519700461938054044,7397,1519700461925257921,optoforce_0,2.1528070916,1.92753623188,-1.96399345336,0.0,0.0,0.0
1519700461975934734,7398,1519700461955281019,optoforce_0,1.39299282398,1.02898550725,0.0,0.0,0.0,0.0
1519700462006966685,7399,1519700461985259056,optoforce_0,0.661319825524,0.405797101449,0.818330605565,0.0,0.0,0.0
1519700462041101593,7400,1519700462025278091,optoforce_0,-0.154776980442,-0.217391304348,1.14566284779,0.0,0.0,0.0
1519700462074298616,7401,1519700462055392026,optoforce_0,-0.211059518784,-0.260869565217,1.3093289689,0.0,0.0,0.0
1519700462107203822,7402,1519700462085237026,optoforce_0,-0.22513015337,-0.260869565217,1.47299509002,0.0,0.0,0.0
1519700462139811724,7403,1519700462125219106,optoforce_0,-0.520613479668,-0.507246376812,0.981996726678,0.0,0.0,0.0
1519700462173801710,7404,1519700462155289888,optoforce_0,0.0984944420993,0.31884057971,1.3093289689,0.0,0.0,0.0
1519700462208043930,7405,1519700462185278892,optoforce_0,0.57689601801,0.753623188406,1.63666121113,0.0,0.0,0.0
1519700462238724605,7406,1519700462225485086,optoforce_0,0.0,0.202898550725,1.3093289689,0.0,0.0,0.0
1519700462273915388,7407,1519700462255295991,optoforce_0,-0.22513015337,0.0289855072464,1.3093289689,0.0,0.0,0.0
1519700462306133592,7408,1519700462295406103,optoforce_0,0.168847615027,0.333333333333,1.47299509002,0.0,0.0,0.0
1519700462339314691,7409,1519700462325263977,optoforce_0,0.211059518784,0.376811594203,1.47299509002,0.0,0.0,0.0
1519700462374495170,7410,1519700462355473995,optoforce_0,0.0281412691712,0.231884057971,1.47299509002,0.0,0.0,0.0
1519700462407614431,7411,1519700462385373115,optoforce_0,-0.0562825383425,0.188405797101,1.47299509002,0.0,0.0,0.0
1519700462441083916,7412,1519700462425376892,optoforce_0,0.0562825383425,0.275362318841,1.47299509002,0.0,0.0,0.0
1519700462474210911,7413,1519700462455456972,optoforce_0,0.0703531729281,0.246376811594,1.47299509002,0.0,0.0,0.0
1519700462507828855,7414,1519700462485327959,optoforce_0,0.0140706345856,0.231884057971,1.63666121113,0.0,0.0,0.0
1519700462541331603,7415,1519700462525350093,optoforce_0,-0.0140706345856,0.231884057971,1.47299509002,0.0,0.0,0.0
1519700462574049961,7416,1519700462555708885,optoforce_0,0.0140706345856,0.246376811594,1.63666121113,0.0,0.0,0.0
1519700462607423323,7417,1519700462585287094,optoforce_0,0.0,0.202898550725,1.63666121113,0.0,0.0,0.0
1519700462639289284,7418,1519700462625396966,optoforce_0,0.0140706345856,0.231884057971,1.63666121113,0.0,0.0,0.0
1519700462672413389,7419,1519700462655339002,optoforce_0,-0.0281412691712,0.231884057971,1.63666121113,0.0,0.0,0.0
1519700462705628916,7420,1519700462685360908,optoforce_0,-0.0281412691712,0.231884057971,1.47299509002,0.0,0.0,0.0
1519700462738985534,7421,1519700462725444078,optoforce_0,0.182918249613,0.391304347826,1.14566284779,0.0,0.0,0.0
1519700462774608403,7422,1519700462755336046,optoforce_0,0.520613479668,0.68115942029,0.327332242226,0.0,0.0,0.0
1519700462808653365,7423,1519700462795553922,optoforce_0,1.02715632475,1.1884057971,-1.47299509002,0.0,0.0,0.0
1519700462840416435,7424,1519700462825520038,optoforce_0,1.49148726608,1.68115942029,-3.43698854337,0.0,0.0,0.0
1519700462873935973,7425,1519700462855505943,optoforce_0,2.06838328409,2.39130434783,-5.56464811784,0.0,0.0,0.0
1519700462907193906,7426,1519700462885386943,optoforce_0,2.92669199381,3.40579710145,-8.18330605565,0.0,0.0,0.0
1519700462939405454,7427,1519700462925482034,optoforce_0,3.88349514563,4.82608695652,-11.4566284779,0.0,0.0,0.0
1519700462974345878,7428,1519700462956104993,optoforce_0,4.81215702828,5.95652173913,-12.6022913257,0.0,0.0,0.0
1519700463007118907,7429,1519700462985591888,optoforce_0,5.8674546222,7.24637681159,-13.4206219313,0.0,0.0,0.0
1519700463039800822,7430,1519700463025585889,optoforce_0,7.16195300408,8.98550724638,-13.5842880524,0.0,0.0,0.0
1519700463073498042,7431,1519700463055546045,optoforce_0,8.14689742507,10.3623188406,-13.093289689,0.0,0.0,0.0
1519700463106464543,7432,1519700463085448026,optoforce_0,9.35697199944,11.8260869565,-11.2929623568,0.0,0.0,0.0
1519700463138432730,7433,1519700463125680923,optoforce_0,10.1027156325,12.6666666667,-10.4746317512,0.0,0.0,0.0
1519700463173423141,7434,1519700463155457973,optoforce_0,10.2715632475,12.8115942029,-10.3109656301,0.0,0.0,0.0
1519700463206774965,7435,1519700463185436010,optoforce_0,10.4263402279,12.8695652174,-10.3109656301,0.0,0.0,0.0
1519700463240239144,7436,1519700463225538969,optoforce_0,10.3419164204,12.6666666667,-10.3109656301,0.0,0.0,0.0
1519700463273905247,7437,1519700463255584955,optoforce_0,10.3981989588,12.5507246377,-10.4746317512,0.0,0.0,0.0
1519700463307197399,7438,1519700463285491943,optoforce_0,10.3700576896,12.347826087,-9.81996726678,0.0,0.0,0.0
1519700463340431094,7439,1519700463325645923,optoforce_0,9.79316167159,11.7391304348,-9.81996726678,0.0,0.0,0.0
1519700463376556325,7440,1519700463355556011,optoforce_0,9.23033628817,10.8695652174,-9.65630114566,0.0,0.0,0.0
1519700463405857716,7441,1519700463385493040,optoforce_0,8.49866328971,9.53623188406,-9.16530278232,0.0,0.0,0.0
1519700463439230369,7442,1519700463425530910,optoforce_0,7.24637681159,7.52173913043,-6.87397708674,0.0,0.0,0.0
1519700463472724008,7443,1519700463455486059,optoforce_0,5.670465738,5.47826086957,-5.40098199673,0.0,0.0,0.0
1519700463507531825,7444,1519700463485486984,optoforce_0,3.64429435768,3.15942028986,-3.10965630115,0.0,0.0,0.0
1519700463540105048,7445,1519700463525808095,optoforce_0,1.91360630364,1.14492753623,-0.654664484452,0.0,0.0,0.0
1519700463574097143,7446,1519700463555500984,optoforce_0,1.44927536232,0.826086956522,0.818330605565,0.0,0.0,0.0
1519700463607661366,7447,1519700463585566043,optoforce_0,0.816096805966,0.463768115942,1.3093289689,0.0,0.0,0.0
1519700463640709300,7448,1519700463625741958,optoforce_0,0.196988884199,0.0,1.47299509002,0.0,0.0,0.0
1519700463674784111,7449,1519700463655513048,optoforce_0,0.22513015337,0.0434782608696,1.63666121113,0.0,0.0,0.0
1519700463707104613,7450,1519700463685579061,optoforce_0,0.253271422541,0.130434782609,1.80032733224,0.0,0.0,0.0
1519700463739789374,7451,1519700463725641965,optoforce_0,0.281412691712,0.231884057971,1.14566284779,0.0,0.0,0.0
1519700463773196942,7452,1519700463755670070,optoforce_0,0.168847615027,0.347826086957,1.47299509002,0.0,0.0,0.0
1519700463805317288,7453,1519700463785583019,optoforce_0,0.196988884199,0.275362318841,1.47299509002,0.0,0.0,0.0
1519700463838885229,7454,1519700463825647115,optoforce_0,0.140706345856,0.246376811594,1.47299509002,0.0,0.0,0.0
1519700463873400391,7455,1519700463855581045,optoforce_0,0.112565076685,0.289855072464,1.3093289689,0.0,0.0,0.0
1519700463906651783,7456,1519700463885617017,optoforce_0,0.126635711271,0.275362318841,1.47299509002,0.0,0.0,0.0
1519700463939388967,7457,1519700463925731897,optoforce_0,0.126635711271,0.231884057971,1.47299509002,0.0,0.0,0.0
1519700463974125436,7458,1519700463955717086,optoforce_0,0.0844238075137,0.246376811594,1.47299509002,0.0,0.0,0.0
1519700464007639074,7459,1519700463985595941,optoforce_0,0.0703531729281,0.246376811594,1.47299509002,0.0,0.0,0.0
1519700464039755183,7460,1519700464025662899,optoforce_0,0.0844238075137,0.217391304348,1.63666121113,0.0,0.0,0.0
1519700464073834177,7461,1519700464055697917,optoforce_0,0.0844238075137,0.231884057971,1.63666121113,0.0,0.0,0.0
1519700464106966409,7462,1519700464085618972,optoforce_0,0.0703531729281,0.231884057971,1.47299509002,0.0,0.0,0.0
1519700464140034961,7463,1519700464125885009,optoforce_0,0.0562825383425,0.260869565217,1.63666121113,0.0,0.0,0.0
1519700464172845594,7464,1519700464155643939,optoforce_0,0.0562825383425,0.231884057971,1.63666121113,0.0,0.0,0.0
1519700464205230809,7465,1519700464185695886,optoforce_0,0.0562825383425,0.202898550725,1.63666121113,0.0,0.0,0.0
1519700464238707757,7466,1519700464225831031,optoforce_0,0.0422119037569,0.217391304348,1.63666121113,0.0,0.0,0.0
1519700464272527649,7467,1519700464255748033,optoforce_0,0.0422119037569,0.231884057971,1.63666121113,0.0,0.0,0.0
1519700464306949216,7468,1519700464285697937,optoforce_0,0.0422119037569,0.231884057971,1.63666121113,0.0,0.0,0.0
1519700464339708463,7469,1519700464325987100,optoforce_0,0.0422119037569,0.202898550725,1.63666121113,0.0,0.0,0.0
1519700464373762893,7470,1519700464355778932,optoforce_0,0.0562825383425,0.231884057971,1.47299509002,0.0,0.0,0.0
1519700464407612179,7471,1519700464385695934,optoforce_0,0.126635711271,0.347826086957,1.47299509002,0.0,0.0,0.0
1519700464440797953,7472,1519700464425812005,optoforce_0,0.267342057127,0.507246376812,1.3093289689,0.0,0.0,0.0
1519700464474621439,7473,1519700464455796003,optoforce_0,0.379907133812,0.565217391304,1.14566284779,0.0,0.0,0.0
1519700464517673309,7474,1519700464485987901,optoforce_0,0.506542845082,0.695652173913,0.818330605565,0.0,0.0,0.0
1519700464540982828,7475,1519700464525799036,optoforce_0,0.661319825524,0.884057971014,0.0,0.0,0.0,0.0
1519700464573208753,7476,1519700464555845022,optoforce_0,0.745743633038,1.04347826087,-0.818330605565,0.0,0.0,0.0
1519700464606988407,7477,1519700464585726976,optoforce_0,0.970873786408,1.21739130435,-1.47299509002,0.0,0.0,0.0
1519700464639321625,7478,1519700464625943899,optoforce_0,1.30856901646,1.42028985507,-2.94599018003,0.0,0.0,0.0
1519700464675433706,7479,1519700464655877113,optoforce_0,1.57591107359,1.57971014493,-4.74631751227,0.0,0.0,0.0
1519700464709699425,7480,1519700464685750007,optoforce_0,2.06838328409,1.85507246377,-6.71031096563,0.0,0.0,0.0
1519700464740333707,7481,1519700464725869894,optoforce_0,2.80005628254,2.47826086957,-9.98363338789,0.0,0.0,0.0
1519700464774606574,7482,1519700464755759000,optoforce_0,3.47544674265,2.92753623188,-13.4206219313,0.0,0.0,0.0
1519700464807335603,7483,1519700464785748958,optoforce_0,4.24933164486,3.6231884058,-16.2029459902,0.0,0.0,0.0
1519700464840170169,7484,1519700464825771093,optoforce_0,4.95286337414,4.34782608696,-18.1669394435,0.0,0.0,0.0
1519700464874330222,7485,1519700464855916976,optoforce_0,4.86843956662,4.31884057971,-18.9852700491,0.0,0.0,0.0
1519700464906924166,7486,1519700464886101961,optoforce_0,4.98100464331,4.30434782609,-18.9852700491,0.0,0.0,0.0
1519700464939005761,7487,1519700464925872087,optoforce_0,5.17799352751,4.39130434783,-18.821603928,0.0,0.0,0.0
